{"U1":{"id":214433687,"haltestellen":[{"id":"214666497","name":"Oberlaa","lat":48.142442551082,"lng":16.3999582372354,"NaN":"4133","reihenfolge":"1"},{"id":"230828919","name":"Neulaa","lat":48.1457452971493,"lng":16.3864835079736,"NaN":"4132","reihenfolge":"2"},{"id":"214460119","name":"Alaudagasse","lat":48.1538903631184,"lng":16.3823243082082,"NaN":"4131","reihenfolge":"3"},{"id":"214460138","name":"Altes Landgut","lat":48.1621060403008,"lng":16.3833843202434,"NaN":"4130","reihenfolge":"4"},{"id":"230828952","name":"Troststraße","lat":48.169038305165,"lng":16.3803839471945,"NaN":"4129","reihenfolge":"5"},{"id":"214461177","name":"Reumannplatz","lat":48.174154518495,"lng":16.3781920579012,"NaN":"4128","reihenfolge":"6"},{"id":"214460771","name":"Keplerplatz","lat":48.178132111491,"lng":16.3765391577784,"NaN":"4126","reihenfolge":"7"},{"id":"214461409","name":"Hauptbahnhof","lat":48.1851879855188,"lng":16.3764133936387,"NaN":"4124","reihenfolge":"8"},{"id":"214461422","name":"Taubstummengasse","lat":48.1938777144884,"lng":16.3702779002481,"NaN":"4122","reihenfolge":"9"},{"id":"214460762","name":"Karlsplatz","lat":48.2008475966667,"lng":16.3688765284049,"NaN":"4120","reihenfolge":"10"},{"id":"214461385","name":"Stephansplatz","lat":48.2081338220924,"lng":16.3716343563271,"NaN":"4118","reihenfolge":"11"},{"id":"214461276","name":"Schwedenplatz","lat":48.2117496082805,"lng":16.3778956138575,"NaN":"4116","reihenfolge":"12"},{"id":"214461016","name":"Nestroyplatz","lat":48.2148144456506,"lng":16.384650944794,"NaN":"4114","reihenfolge":"13"},{"id":"214461125","name":"Praterstern","lat":48.2185135557888,"lng":16.3923315404733,"NaN":"4112","reihenfolge":"14"},{"id":"214461487","name":"Vorgartenstraße","lat":48.2240916436254,"lng":16.4018896150963,"NaN":"4110","reihenfolge":"15"},{"id":"214460339","name":"Donauinsel","lat":48.2289989006584,"lng":16.4109805657716,"NaN":"4108","reihenfolge":"16"},{"id":"214460746","name":"Kaisermühlen-VIC","lat":48.2323379601984,"lng":16.4154990916507,"NaN":"4106","reihenfolge":"17"},{"id":"214460136","name":"Alte Donau","lat":48.2379564234283,"lng":16.4242307162123,"NaN":"4104","reihenfolge":"18"},{"id":"214460732","name":"Kagran","lat":48.2436460592695,"lng":16.433698959307,"NaN":"4102","reihenfolge":"19"},{"id":"214460738","name":"Kagraner Platz","lat":48.2503041038334,"lng":16.4433019496942,"NaN":"4186","reihenfolge":"20"},{"id":"214461888","name":"Rennbahnweg","lat":48.257356019686,"lng":16.4494464262376,"NaN":"4187","reihenfolge":"21"},{"id":"214461886","name":"Aderklaaer Straße","lat":48.2627624278838,"lng":16.4515754334609,"NaN":"4188","reihenfolge":"22"},{"id":"214461887","name":"Großfeldsiedlung","lat":48.2706317965585,"lng":16.4480720038529,"NaN":"4189","reihenfolge":"23"},{"id":"214460873","name":"Leopoldau","lat":48.2777287364278,"lng":16.4498416849626,"NaN":"4190","reihenfolge":"24"}]},"U2":{"id":214433689,"haltestellen":[{"id":"214550392","name":"Seestadt","lat":48.2263897347649,"lng":16.5084747235571,"NaN":"4276","reihenfolge":"1"},{"id":"214507152","name":"Aspern Nord","lat":48.2344801094726,"lng":16.504576035224,"NaN":"4275","reihenfolge":"2"},{"id":"214460592","name":"Hausfeldstraße","lat":48.2337142116523,"lng":16.4869780388081,"NaN":"4274","reihenfolge":"3"},{"id":"214460404","name":"Aspernstraße","lat":48.2224458118244,"lng":16.4747609509441,"NaN":"4272","reihenfolge":"4"},{"id":"214461353","name":"Donauspital","lat":48.2195609898773,"lng":16.4659933937711,"NaN":"4271","reihenfolge":"5"},{"id":"214460578","name":"Hardeggasse","lat":48.2208897039984,"lng":16.457791775227,"NaN":"4270","reihenfolge":"6"},{"id":"214461367","name":"Stadlau","lat":48.2191719454318,"lng":16.4483235321324,"NaN":"4269","reihenfolge":"7"},{"id":"214460395","name":"Donaustadtbrücke","lat":48.2117915115908,"lng":16.4401308967413,"NaN":"4268","reihenfolge":"8"},{"id":"214460387","name":"Donaumarina","lat":48.2061222808525,"lng":16.4309680808432,"NaN":"4267","reihenfolge":"9"},{"id":"214461911","name":"Stadion","lat":48.2110791506522,"lng":16.4197660892503,"NaN":"4266","reihenfolge":"10"},{"id":"214461910","name":"Krieau","lat":48.2144912097378,"lng":16.414124669266,"NaN":"4265","reihenfolge":"11"},{"id":"214461909","name":"Messe-Prater","lat":48.2177893174017,"lng":16.4056984719009,"NaN":"4264","reihenfolge":"12"},{"id":"214461125","name":"Praterstern","lat":48.2185135557888,"lng":16.3923315404733,"NaN":"4263","reihenfolge":"13"},{"id":"214461908","name":"Taborstraße","lat":48.218974429428,"lng":16.3808331048365,"NaN":"4262","reihenfolge":"14"},{"id":"214461261","name":"Schottenring","lat":48.2169214149303,"lng":16.371131299768,"NaN":"4214","reihenfolge":"15"},{"id":"214461263","name":"Schottentor","lat":48.2139405068162,"lng":16.3622649279138,"NaN":"4212","reihenfolge":"16"},{"id":"214461155","name":"Rathaus","lat":48.2100255566437,"lng":16.3553479002261,"NaN":"4210","reihenfolge":"17"},{"id":"214461485","name":"Volkstheater","lat":48.20514042846,"lng":16.3579709808557,"NaN":"4206","reihenfolge":"18"},{"id":"214460938","name":"Museumsquartier","lat":48.2025360336844,"lng":16.3614115283939,"NaN":"4204","reihenfolge":"19"},{"id":"214460762","name":"Karlsplatz","lat":48.2008475966667,"lng":16.3688765284049,"NaN":"4202","reihenfolge":"20"}]},"U3":{"id":214433691,"haltestellen":[{"id":"214461074","name":"Ottakring","lat":48.2120249722633,"lng":16.3116718111122,"NaN":"4930","reihenfolge":"1"},{"id":"214461382","name":"Kendlerstraße","lat":48.2047093653665,"lng":16.3090846630939,"NaN":"4929","reihenfolge":"2"},{"id":"214461121","name":"Hütteldorfer Straße","lat":48.1991231780155,"lng":16.3122108002826,"NaN":"4928","reihenfolge":"3"},{"id":"214460711","name":"Johnstraße","lat":48.1976741424633,"lng":16.3196398676823,"NaN":"4925","reihenfolge":"4"},{"id":"214461278","name":"Schweglerstraße","lat":48.1978897040661,"lng":16.3283984417025,"NaN":"4924","reihenfolge":"5"},{"id":"214461519","name":"Westbahnhof","lat":48.1966562004186,"lng":16.3376510891289,"NaN":"4920","reihenfolge":"6"},{"id":"214461577","name":"Zieglergasse","lat":48.1969675730735,"lng":16.3453676174195,"NaN":"4919","reihenfolge":"7"},{"id":"214460161","name":"Neubaugasse","lat":48.1982908857453,"lng":16.350200553648,"NaN":"4918","reihenfolge":"8"},{"id":"214461485","name":"Volkstheater","lat":48.20514042846,"lng":16.3579709808557,"NaN":"4908","reihenfolge":"9"},{"id":"214460611","name":"Herrengasse","lat":48.2094867786037,"lng":16.3658492058974,"NaN":"4907","reihenfolge":"10"},{"id":"214461385","name":"Stephansplatz","lat":48.2081338220924,"lng":16.3716343563271,"NaN":"4906","reihenfolge":"11"},{"id":"214460350","name":"Stubentor","lat":48.2070681940144,"lng":16.3802761493604,"NaN":"4905","reihenfolge":"12"},{"id":"214460847","name":"Wien Mitte-Landstraße","lat":48.2060444517766,"lng":16.3845880627241,"NaN":"4904","reihenfolge":"13"},{"id":"214461186","name":"Rochusgasse","lat":48.2025240591498,"lng":16.391325427355,"NaN":"4903","reihenfolge":"14"},{"id":"214460758","name":"Kardinal-Nagl-Platz","lat":48.1973328347375,"lng":16.4005331590173,"NaN":"4902","reihenfolge":"15"},{"id":"214461277","name":"Schlachthausgasse","lat":48.1940334094952,"lng":16.407450186705,"NaN":"4901","reihenfolge":"16"},{"id":"214460394","name":"Erdberg","lat":48.1915242669567,"lng":16.4139989051262,"NaN":"4900","reihenfolge":"17"},{"id":"214461778","name":"Gasometer","lat":48.1855293741445,"lng":16.4177628461667,"NaN":"4941","reihenfolge":"18"},{"id":"214460504","name":"Zippererstraße","lat":48.1794978403254,"lng":16.411124296217,"NaN":"4940","reihenfolge":"19"},{"id":"214460530","name":"Enkplatz","lat":48.1743402262398,"lng":16.415310445441,"NaN":"4939","reihenfolge":"20"},{"id":"214461337","name":"Simmering","lat":48.1701586437705,"lng":16.420008634377,"NaN":"4938","reihenfolge":"21"}]},"U4":{"id":214433693,"haltestellen":[{"id":"214461289","name":"Schönbrunn","lat":48.185900706559,"lng":16.3194781709312,"NaN":"4426","reihenfolge":"6"},{"id":"214460965","name":"Meidling Hauptstraße","lat":48.183666682246,"lng":16.3289374308729,"NaN":"4424","reihenfolge":"7"},{"id":"214460923","name":"Längenfeldgasse","lat":48.1851161139395,"lng":16.3353603851544,"NaN":"4438","reihenfolge":"8"},{"id":"214460930","name":"Margaretengürtel","lat":48.1882903459574,"lng":16.3425019916631,"NaN":"4422","reihenfolge":"9"},{"id":"214461108","name":"Pilgramgasse","lat":48.1926261489778,"lng":16.3544765344005,"NaN":"4420","reihenfolge":"10"},{"id":"214460775","name":"Kettenbrückengasse","lat":48.1968178749179,"lng":16.3589950602796,"NaN":"4418","reihenfolge":"11"},{"id":"214460762","name":"Karlsplatz","lat":48.2008475966667,"lng":16.3688765284049,"NaN":"4416","reihenfolge":"12"},{"id":"214461371","name":"Stadtpark","lat":48.2025120846123,"lng":16.379108339491,"NaN":"4414","reihenfolge":"13"},{"id":"214460847","name":"Wien Mitte-Landstraße","lat":48.2060444517766,"lng":16.3845880627241,"NaN":"4412","reihenfolge":"14"},{"id":"214461276","name":"Schwedenplatz","lat":48.2117496082805,"lng":16.3778956138575,"NaN":"4410","reihenfolge":"15"},{"id":"214461261","name":"Schottenring","lat":48.2169214149303,"lng":16.371131299768,"NaN":"4408","reihenfolge":"16"},{"id":"214461205","name":"Roßauer Lände","lat":48.2221405790187,"lng":16.3675021060202,"NaN":"4406","reihenfolge":"17"},{"id":"214460462","name":"Friedensbrücke","lat":48.2270300699041,"lng":16.3648790253906,"NaN":"4433","reihenfolge":"18"},{"id":"214461145","name":"Spittelau","lat":48.2356109845114,"lng":16.3583662395807,"NaN":"4440","reihenfolge":"19"},{"id":"214460596","name":"Heiligenstadt","lat":48.2489641896889,"lng":16.3657234417576,"NaN":"4402","reihenfolge":"20"},{"id":"214460665","name":"Hütteldorf","lat":48.1973867255822,"lng":16.2610697111577,"NaN":"4436","reihenfolge":"1"},{"id":"214461050","name":"Ober St. Veit","lat":48.1922907960883,"lng":16.2757212334417,"NaN":"4434","reihenfolge":"2"},{"id":"214461460","name":"Unter St. Veit","lat":48.1910032601422,"lng":16.2867525451307,"NaN":"4432","reihenfolge":"3"},{"id":"214460266","name":"Braunschweiggasse","lat":48.1894881182707,"lng":16.2954572202338,"NaN":"4430","reihenfolge":"4"},{"id":"214460625","name":"Hietzing","lat":48.187793262228,"lng":16.3038654512932,"NaN":"4428","reihenfolge":"5"}]},"U6":{"id":214433695,"haltestellen":[{"id":"214461312","name":"Siebenhirten","lat":48.1298889787135,"lng":16.3097045006399,"NaN":"4634","reihenfolge":"1"},{"id":"214461098","name":"Perfektastraße","lat":48.1366577378758,"lng":16.3132528460122,"NaN":"4633","reihenfolge":"2"},{"id":"214460390","name":"Erlaaer Straße","lat":48.1418491132051,"lng":16.3165316967992,"NaN":"4632","reihenfolge":"3"},{"id":"214461547","name":"Alterlaa","lat":48.1508878071215,"lng":16.3169808544413,"NaN":"4631","reihenfolge":"4"},{"id":"214460153","name":"Am Schöpfwerk","lat":48.1612312021862,"lng":16.3246075512035,"NaN":"4630","reihenfolge":"5"},{"id":"214461450","name":"Tscherttegasse","lat":48.1650779816342,"lng":16.3279043682962,"NaN":"4629","reihenfolge":"6"},{"id":"214461106","name":"Meidling","lat":48.1743402262398,"lng":16.3319917028389,"NaN":"4614","reihenfolge":"7"},{"id":"214461036","name":"Niederhofstraße","lat":48.1810611957759,"lng":16.3311922022361,"NaN":"4613","reihenfolge":"8"},{"id":"214460923","name":"Längenfeldgasse","lat":48.1851161139395,"lng":16.3353603851544,"NaN":"4612","reihenfolge":"9"},{"id":"214460541","name":"Gumpendorfer Straße","lat":48.1907277831339,"lng":16.3375612576005,"NaN":"4611","reihenfolge":"10"},{"id":"214461519","name":"Westbahnhof","lat":48.1966562004186,"lng":16.3376510891289,"NaN":"4610","reihenfolge":"11"},{"id":"214460293","name":"Burggasse-Stadthalle","lat":48.2022965424591,"lng":16.3373097293209,"NaN":"4609","reihenfolge":"12"},{"id":"214461428","name":"Thaliastraße","lat":48.2085648563651,"lng":16.3384326234261,"NaN":"4608","reihenfolge":"13"},{"id":"214460720","name":"Josefstädter Straße","lat":48.2113844494108,"lng":16.3391602588062,"NaN":"","reihenfolge":"14"},{"id":"214460132","name":"Alser Straße","lat":48.217142881097,"lng":16.341998935104,"NaN":"4606","reihenfolge":"15"},{"id":"214460975","name":"Michelbeuern-AKH","lat":48.220985465846,"lng":16.3439392961177,"NaN":"4605","reihenfolge":"16"},{"id":"214461558","name":"Währinger Straße-Volksoper","lat":48.225270625146,"lng":16.3493291878225,"NaN":"4604","reihenfolge":"17"},{"id":"214461045","name":"Nußdorfer Straße","lat":48.2314822721546,"lng":16.3528865163476,"NaN":"4603","reihenfolge":"18"},{"id":"214461145","name":"Spittelau","lat":48.2356109845114,"lng":16.3583662395807,"NaN":"4651","reihenfolge":"19"},{"id":"214461702","name":"Jägerstraße","lat":48.2352340289423,"lng":16.3694694164924,"NaN":"4650","reihenfolge":"20"},{"id":"214460605","name":"Dresdner Straße","lat":48.2369811646931,"lng":16.3795215645217,"NaN":"4649","reihenfolge":"21"},{"id":"214461737","name":"Handelskai","lat":48.2417974457343,"lng":16.3852258665759,"NaN":"4648","reihenfolge":"22"},{"id":"214461703","name":"Neue Donau","lat":48.2464697024341,"lng":16.3956193744131,"NaN":"4647","reihenfolge":"23"},{"id":"214460439","name":"Floridsdorf","lat":48.2567938161037,"lng":16.4002995970434,"NaN":"4646","reihenfolge":"24"}]}}